[
  {
    "id": "marshalls",
    "name": "Marshall's",
    "description": "Chef-driven plates highlighting fresh seafood, island spices, and an elegant waterfront dining room.",
    "category": "restaurant",
    "location": { "lat": 17.2941, "lng": -62.7207 }
  },
  {
    "id": "vibes-beach-bar",
    "name": "Vibes Beach Bar",
    "description": "Laid-back spot for grilled fish, rum punch, and sunset music right on the sand.",
    "category": "beach",
    "location": { "lat": 17.2739, "lng": -62.6879 }
  },
  {
    "id": "carambola-beach-club",
    "name": "Carambola Beach Club",
    "description": "Resort dining with ocean views and palm-shaded lounges.",
    "category": "restaurant",
    "location": { "lat": 17.4035, "lng": -62.8362 }
  },
  {
    "id": "sunset-cafe",
    "name": "Sunset Cafe",
    "description": "Known for lobster nights, local produce, and golden hour views on the water.",
    "category": "restaurant",
    "location": { "lat": 17.3022, "lng": -62.7168 }
  },
  {
    "id": "fishermans-village",
    "name": "Fisherman's Village",
    "description": "Grab grilled snapper, conch fritters, and island sides straight from the harbor.",
    "category": "restaurant",
    "location": { "lat": 17.2993, "lng": -62.7257 }
  }
]
